{ "type": "Feature", "properties": { "address": "404, Cumberland Street, Fort Greene, Brooklyn, Kings County, New York, 11238, United States", "name": "South Oxford" }, "geometry": { "type": "Point", "coordinates": [ -73.972129, 40.6840711 ] } }
{ "type": "Feature", "properties": { "address": "DeKalb Avenue, Fort Greene, Brooklyn, Kings County, New York, 11221, United States", "name": "Fort Greene" }, "geometry": { "type": "Point", "coordinates": [ -73.978382, 40.6898247 ] } }
{ "type": "Feature", "properties": { "address": "341, Malcolm X Boulevard, Brooklyn, Kings County, New York, 11233, United States", "name": "Jackie Robinson" }, "geometry": { "type": "Point", "coordinates": [ -73.9284951, 40.6806745 ] } }
{ "type": "Feature", "properties": { "address": "272, MacDonough Street, Bedford-Stuyvesant, Brooklyn, Kings County, New York, 11233, United States", "name": "Decatur" }, "geometry": { "type": "Point", "coordinates": [ -73.9355312, 40.6818194 ] } }
{ "type": "Feature", "properties": { "address": "299, Buffalo Avenue, Brooklyn, Kings County, New York, 11213, United States", "name": "Lincoln Terrace" }, "geometry": { "type": "Point", "coordinates": [ -73.925451, 40.668831 ] } }
{ "type": "Feature", "properties": { "address": "50, Parkside Avenue, Flatbush, Brooklyn, Kings County, New York, 11226, United States", "name": "Prospect Park" }, "geometry": { "type": "Point", "coordinates": [ -73.961844, 40.6549845 ] } }
{ "type": "Feature", "properties": { "address": "50, Bedford Avenue, Greenpoint, Brooklyn, Kings County, New York, 11222, United States", "name": "Mccarren" }, "geometry": { "type": "Point", "coordinates": [ -73.9534005, 40.7222456 ] } }
{ "type": "Feature", "properties": { "address": "Sunnyside Avenue, Cypress Hills, Brooklyn, Kings County, New York, 11207, United States", "name": "Forest Hills" }, "geometry": { "type": "Point", "coordinates": [ -73.8904704, 40.6823958 ] } }
{ "type": "Feature", "properties": { "address": "67th Street, Bay Ridge, Brooklyn, Kings County, New York, 11220, United States", "name": "Leif Ericson" }, "geometry": { "type": "Point", "coordinates": [ -74.0171488, 40.6335201 ] } }
{ "type": "Feature", "properties": { "address": "Maspeth Avenue, Brooklyn, Kings County, New York, 11211, United States", "name": "Cooper" }, "geometry": { "type": "Point", "coordinates": [ -73.9381716, 40.7162868 ] } }
{ "type": "Feature", "properties": { "address": "MatchPoint NYC, 9000, Bay Parkway, Bath Beach, Brooklyn, Kings County, New York, 11214, United States", "name": "Bensonhurst" }, "geometry": { "type": "Point", "coordinates": [ -74.0015034, 40.5950783 ] } }
